[
  {
    "name": "Минск",
    "region": "Минская область",
    "country": "Беларусь",
    "longitude": 27.5618225,
    "latitude": 53.9024716
  },
  {
    "name": "Гомель",
    "region": "Гомельская область",
    "country": "Беларусь",
    "longitude": 31.0131698,
    "latitude": 52.4238936 
  },
  {
    "name": "Могилёв",
    "region": "Могилёвская область",
    "country": "Беларусь",
    "longitude": 30.3429838,
    "latitude": 53.9090245
  },
  {
    "name": "Гродно",
    "region": "Гродненская область",
    "country": "Беларусь",
    "longitude": 23.8342648,
    "latitude": 53.6834599
  },
  {
    "name": "Брест",
    "region": "Брестская область",
    "country": "Беларусь",
    "longitude": 23.6851851,
    "latitude": 52.093751
  },
  {
    "name": "Витебск",
    "region": "Витебская область",
    "country": "Беларусь",
    "longitude": 30.2070437,
    "latitude": 55.1930197
  },
  {
    "name": "Бобруйск",
    "region": "Могилёвская область",
    "country": "Беларусь",
    "longitude": 29.2281209,
    "latitude": 53.1449683
  },
  {
    "name": "Кировск",
    "region": "Могилевская область",
    "country": "Беларусь",
    "longitude": 29.4716,
    "latitude": 53.27022
  },
  {
    "name": "Пинск",
    "region": "Брестская область",
    "country": "Беларусь",
    "longitude": 26.1025274,
    "latitude": 52.1113862
  },
  {
    "name": "Полоцк",
    "region": "Полоцкий район, Витебская область",
    "country": "Беларусь",
    "longitude": 28.7682339,
    "latitude": 55.4854656
  }
]